[
  {
    "Name": "水里",
    "Address": "南投縣水里鄉民生路442號",
    "Phone": "049-2770015",
    "Region": "中部",
    "Lat": 23.818523,
    "Lon": 120.853412,
    "Level": "其他"
  },
  {
    "Name": "集集",
    "Address": "南投縣集集鎮民生路75號",
    "Phone": "049-2762546",
    "Region": "中部",
    "Lat": 23.826455,
    "Lon": 120.784901,
    "Level": "其他"
  },
  {
    "Name": "車埕",
    "Address": "南投縣水里鄉車埕村民權巷2號",
    "Phone": "049-2774749",
    "Region": "中部",
    "Lat": 23.832549,
    "Lon": 120.865679,
    "Level": "其他"
  },
  {
    "Name": "濁水",
    "Address": "南投縣名間鄉濁水村車站路15號",
    "Phone": "049-2735850",
    "Region": "中部",
    "Lat": 23.834626,
    "Lon": 120.704697,
    "Level": "其他"
  },
  {
    "Name": "龍泉",
    "Address": "南投縣集集鎮隘寮村(無站房)",
    "Phone": "04-8792027",
    "Region": "中部",
    "Lat": 23.835248,
    "Lon": 120.750114,
    "Level": "其他"
  },
  {
    "Name": "百福",
    "Address": "基隆市七堵區明德三路1之1號",
    "Phone": "02-24528372",
    "Region": "北部",
    "Lat": 25.077943,
    "Lon": 121.693796,
    "Level": "其他"
  },
  {
    "Name": "七堵",
    "Address": "基隆市七堵區長興里東新街2號之1",
    "Phone": "02-24553426",
    "Region": "北部",
    "Lat": 25.093151,
    "Lon": 121.714337,
    "Level": "一等站"
  },
  {
    "Name": "暖暖",
    "Address": "基隆市暖暖區暖暖街51號",
    "Phone": "02-24972033",
    "Region": "北部",
    "Lat": 25.102166,
    "Lon": 121.740642,
    "Level": "其他"
  },
  {
    "Name": "八堵",
    "Address": "基隆市暖暖區八南里八堵路142號",
    "Phone": "02-24560841",
    "Region": "北部",
    "Lat": 25.108342,
    "Lon": 121.72888,
    "Level": "二等站"
  },
  {
    "Name": "三坑",
    "Address": "基隆市仁愛區龍安街206號",
    "Phone": "02-24230289",
    "Region": "北部",
    "Lat": 25.123234,
    "Lon": 121.741986,
    "Level": "其他"
  },
  {
    "Name": "基隆(南站)",
    "Address": "",
    "Phone": "",
    "Region": "其他",
    "Lat": 25.131874,
    "Lon": 121.73849,
    "Level": "一等站"
  },
  {
    "Name": "基隆(北站)",
    "Address": "基隆市仁愛區文昌里港西街5號",
    "Phone": "02-24263743",
    "Region": "北部",
    "Lat": 25.134107,
    "Lon": 121.739967,
    "Level": "一等站"
  },
  {
    "Name": "八斗子",
    "Address": "基隆市中正區/新北市瑞芳區交界處(無站房)",
    "Phone": "02-24972033",
    "Region": "北部",
    "Lat": 25.135326,
    "Lon": 121.802887,
    "Level": "其他"
  },
  {
    "Name": "海科館",
    "Address": "基隆市中正區(無站房)",
    "Phone": "02-24972033",
    "Region": "北部",
    "Lat": 25.137578,
    "Lon": 121.799868,
    "Level": "其他"
  },
  {
    "Name": "漢本",
    "Address": "宜蘭縣南澳鄉澳花村蘇花路一段56號",
    "Phone": "03-9985238",
    "Region": "東部",
    "Lat": 24.335422,
    "Lon": 121.768319,
    "Level": "其他"
  },
  {
    "Name": "武塔",
    "Address": "宜蘭縣南澳鄉武塔村新溪路18號",
    "Phone": "03-9981971",
    "Region": "東部",
    "Lat": 24.449164,
    "Lon": 121.775832,
    "Level": "其他"
  },
  {
    "Name": "南澳",
    "Address": "宜蘭縣蘇澳鎮南強里大通路22號",
    "Phone": "03-9981971",
    "Region": "東部",
    "Lat": 24.463348,
    "Lon": 121.801034,
    "Level": "其他"
  },
  {
    "Name": "東澳",
    "Address": "宜蘭縣南澳鄉東岳村1號",
    "Phone": "03-9986053",
    "Region": "東部",
    "Lat": 24.518218,
    "Lon": 121.83067,
    "Level": "二等站"
  },
  {
    "Name": "永樂",
    "Address": "宜蘭縣蘇澳鎮永樂里圳頭路60號",
    "Phone": "03-9961889",
    "Region": "東部",
    "Lat": 24.568367,
    "Lon": 121.844532,
    "Level": "其他"
  },
  {
    "Name": "蘇澳",
    "Address": "宜蘭縣蘇澳鎮蘇南里太平路1號",
    "Phone": "03-9962028",
    "Region": "東部",
    "Lat": 24.595129,
    "Lon": 121.851478,
    "Level": "二等站"
  },
  {
    "Name": "蘇澳新",
    "Address": "宜蘭縣蘇澳鎮聖愛里中山路二段238號",
    "Phone": "03-9961004",
    "Region": "東部",
    "Lat": 24.608691,
    "Lon": 121.827261,
    "Level": "一等站"
  },
  {
    "Name": "新馬",
    "Address": "宜蘭縣蘇澳鎮中山路二段322號",
    "Phone": "03-9961004",
    "Region": "東部",
    "Lat": 24.615393,
    "Lon": 121.822905,
    "Level": "其他"
  },
  {
    "Name": "冬山",
    "Address": "宜蘭縣冬山鄉冬山村中正路1之2號",
    "Phone": "03-9594221",
    "Region": "東部",
    "Lat": 24.636489,
    "Lon": 121.79228,
    "Level": "其他"
  },
  {
    "Name": "羅東",
    "Address": "宜蘭縣羅東鎮大新里公正路2號",
    "Phone": "03-9542117",
    "Region": "東部",
    "Lat": 24.67789,
    "Lon": 121.774357,
    "Level": "二等站"
  },
  {
    "Name": "中里",
    "Address": "宜蘭縣五結鄉台興路10號",
    "Phone": "03-9542117",
    "Region": "東部",
    "Lat": 24.69463,
    "Lon": 121.77527,
    "Level": "其他"
  },
  {
    "Name": "二結",
    "Address": "宜蘭縣五結鄉五結中路三段658巷8號",
    "Phone": "03-9650304",
    "Region": "東部",
    "Lat": 24.705292,
    "Lon": 121.774181,
    "Level": "其他"
  },
  {
    "Name": "宜蘭",
    "Address": "宜蘭縣宜蘭市和睦里光復路1號",
    "Phone": "03-9323801",
    "Region": "東部",
    "Lat": 24.754624,
    "Lon": 121.758016,
    "Level": "一等站"
  },
  {
    "Name": "四城",
    "Address": "宜蘭縣礁溪鄉吳沙村站前路24號",
    "Phone": "03-9282449",
    "Region": "東部",
    "Lat": 24.786822,
    "Lon": 121.762705,
    "Level": "其他"
  },
  {
    "Name": "礁溪",
    "Address": "宜蘭縣礁溪鄉德陽村溫泉路1號",
    "Phone": "03-9886940",
    "Region": "東部",
    "Lat": 24.827012,
    "Lon": 121.775294,
    "Level": "其他"
  },
  {
    "Name": "頂埔",
    "Address": "宜蘭縣頭城鎮下埔里下埔路4之8號",
    "Phone": "03-9886940",
    "Region": "東部",
    "Lat": 24.843907,
    "Lon": 121.809103,
    "Level": "其他"
  },
  {
    "Name": "頭城",
    "Address": "宜蘭縣頭城鎮城北里纘祥路59號",
    "Phone": "03-9771429",
    "Region": "東部",
    "Lat": 24.858885,
    "Lon": 121.822465,
    "Level": "二等站"
  },
  {
    "Name": "外澳",
    "Address": "宜蘭縣頭城鎮外澳里濱海路二段217號",
    "Phone": "03-9771429",
    "Region": "東部",
    "Lat": 24.883881,
    "Lon": 121.8459,
    "Level": "其他"
  },
  {
    "Name": "龜山",
    "Address": "宜蘭縣頭城鎮更新里濱海路三段261號",
    "Phone": "03-9770351",
    "Region": "東部",
    "Lat": 24.904869,
    "Lon": 121.868878,
    "Level": "其他"
  },
  {
    "Name": "大溪",
    "Address": "宜蘭縣頭城鎮大溪里濱海路五段63號",
    "Phone": "03-9771429",
    "Region": "東部",
    "Lat": 24.938375,
    "Lon": 121.88982,
    "Level": "其他"
  },
  {
    "Name": "大里",
    "Address": "宜蘭縣頭城鎮大里里濱海路六段326號",
    "Phone": "03-9781171",
    "Region": "東部",
    "Lat": 24.966735,
    "Lon": 121.92252,
    "Level": "其他"
  },
  {
    "Name": "石城",
    "Address": "宜蘭縣頭城鎮濱海路七段230號",
    "Phone": "03-9771429",
    "Region": "東部",
    "Lat": 24.978315,
    "Lon": 121.945063,
    "Level": "其他"
  },
  {
    "Name": "源泉(集集線)",
    "Address": "彰化縣二水鄉合興村英義路(無站房)",
    "Phone": "04-8792027",
    "Region": "中部",
    "Lat": 23.798442,
    "Lon": 120.642037,
    "Level": "其他"
  },
  {
    "Name": "二水",
    "Address": "彰化縣二水鄉光文路1號",
    "Phone": "04-8792027",
    "Region": "中部",
    "Lat": 23.813213,
    "Lon": 120.618085,
    "Level": "二等站"
  },
  {
    "Name": "田中",
    "Address": "彰化縣田中鎮中州路一段1號",
    "Phone": "04-8742142",
    "Region": "中部",
    "Lat": 23.85828,
    "Lon": 120.591297,
    "Level": "二等站"
  },
  {
    "Name": "社頭",
    "Address": "彰化縣社頭鄉廣興村社站路10號",
    "Phone": "04-8711646",
    "Region": "中部",
    "Lat": 23.895717,
    "Lon": 120.580756,
    "Level": "其他"
  },
  {
    "Name": "永靖",
    "Address": "彰化縣永靖鄉崙子村永崙路25號",
    "Phone": "04-8320544",
    "Region": "中部",
    "Lat": 23.927999,
    "Lon": 120.571713,
    "Level": "其他"
  },
  {
    "Name": "員林",
    "Address": "彰化縣員林市民權街55號",
    "Phone": "04-8320544",
    "Region": "中部",
    "Lat": 23.959364,
    "Lon": 120.569747,
    "Level": "一等站"
  },
  {
    "Name": "大村",
    "Address": "彰化縣大村鄉過溝村福進路100號",
    "Phone": "04-8525148",
    "Region": "中部",
    "Lat": 23.990057,
    "Lon": 120.560653,
    "Level": "其他"
  },
  {
    "Name": "花壇",
    "Address": "彰化縣花壇鄉中正路370號",
    "Phone": "04-7881418",
    "Region": "中部",
    "Lat": 24.025012,
    "Lon": 120.537394,
    "Level": "其他"
  },
  {
    "Name": "彰化",
    "Address": "彰化縣彰化市三民路1號",
    "Phone": "04-7274218",
    "Region": "中部",
    "Lat": 24.081607,
    "Lon": 120.538466,
    "Level": "一等站"
  },
  {
    "Name": "鶯歌",
    "Address": "新北市鶯歌區東鶯里文化路68之1號",
    "Phone": "02-26792004",
    "Region": "北部",
    "Lat": 24.954531,
    "Lon": 121.35519,
    "Level": "二等站"
  },
  {
    "Name": "鳳鳴臨時",
    "Address": "",
    "Phone": "",
    "Region": "其他",
    "Lat": 24.972639,
    "Lon": 121.336597,
    "Level": "其他"
  },
  {
    "Name": "山佳",
    "Address": "新北市樹林區中山里中山路三段108號",
    "Phone": "02-26808874",
    "Region": "北部",
    "Lat": 24.972681,
    "Lon": 121.392583,
    "Level": "其他"
  },
  {
    "Name": "南樹林",
    "Address": "新北市樹林區中山里中山路二段230號",
    "Phone": "02-23815226分機4403、02-26812052",
    "Region": "北部",
    "Lat": 24.980513,
    "Lon": 121.40884,
    "Level": "其他"
  },
  {
    "Name": "樹林",
    "Address": "新北市樹林區樹北里鎮前街112號",
    "Phone": "02-26812052",
    "Region": "北部",
    "Lat": 24.991284,
    "Lon": 121.424782,
    "Level": "一等站"
  },
  {
    "Name": "浮洲",
    "Address": "新北市板橋區僑中二街156號",
    "Phone": "02-23815226#4665",
    "Region": "北部",
    "Lat": 25.004212,
    "Lon": 121.444659,
    "Level": "其他"
  },
  {
    "Name": "板橋",
    "Address": "新北市板橋區縣民大道二段7號",
    "Phone": "02-89691036",
    "Region": "北部",
    "Lat": 25.014228,
    "Lon": 121.464227,
    "Level": "一等站"
  },
  {
    "Name": "福隆",
    "Address": "新北市貢寮區福隆里福隆街2號",
    "Phone": "02-24991800",
    "Region": "北部",
    "Lat": 25.015911,
    "Lon": 121.944693,
    "Level": "其他"
  },
  {
    "Name": "貢寮",
    "Address": "新北市貢寮區貢寮里朝陽街33號",
    "Phone": "02-24941500",
    "Region": "北部",
    "Lat": 25.022008,
    "Lon": 121.908718,
    "Level": "其他"
  },
  {
    "Name": "菁桐",
    "Address": "新北市平溪區菁桐街52號",
    "Phone": "02-24972033",
    "Region": "北部",
    "Lat": 25.024082,
    "Lon": 121.723835,
    "Level": "其他"
  },
  {
    "Name": "平溪",
    "Address": "新北市平溪區中華街12號",
    "Phone": "02-24972033",
    "Region": "北部",
    "Lat": 25.025567,
    "Lon": 121.740016,
    "Level": "其他"
  },
  {
    "Name": "嶺腳",
    "Address": "新北市平溪區嶺腳街22號",
    "Phone": "02-24972033",
    "Region": "北部",
    "Lat": 25.030152,
    "Lon": 121.747995,
    "Level": "其他"
  },
  {
    "Name": "望古",
    "Address": "新北市平溪區(無站房)",
    "Phone": "02-24972033",
    "Region": "北部",
    "Lat": 25.034577,
    "Lon": 121.763807,
    "Level": "其他"
  },
  {
    "Name": "雙溪",
    "Address": "新北市雙溪區新基里朝陽街1號",
    "Phone": "02-24932980",
    "Region": "北部",
    "Lat": 25.038588,
    "Lon": 121.866529,
    "Level": "二等站"
  },
  {
    "Name": "十分",
    "Address": "新北市平溪區十分街51號",
    "Phone": "02-24958307",
    "Region": "北部",
    "Lat": 25.041006,
    "Lon": 121.775033,
    "Level": "其他"
  },
  {
    "Name": "大華",
    "Address": "新北市平溪區六分路12之1號",
    "Phone": "02-24972033",
    "Region": "北部",
    "Lat": 25.049819,
    "Lon": 121.797592,
    "Level": "其他"
  },
  {
    "Name": "牡丹",
    "Address": "新北市雙溪區牡丹里16鄰牡丹路159號",
    "Phone": "02-24932980",
    "Region": "北部",
    "Lat": 25.058701,
    "Lon": 121.852004,
    "Level": "其他"
  },
  {
    "Name": "汐科",
    "Address": "新北市汐止區大同路二段182號",
    "Phone": "02-23815226#8730",
    "Region": "北部",
    "Lat": 25.062573,
    "Lon": 121.646688,
    "Level": "其他"
  },
  {
    "Name": "三貂嶺",
    "Address": "新北市瑞芳區碩仁里魚寮路1號",
    "Phone": "02-24977896",
    "Region": "北部",
    "Lat": 25.065527,
    "Lon": 121.822537,
    "Level": "其他"
  },
  {
    "Name": "汐止",
    "Address": "新北市汐止區信望里信義路1號",
    "Phone": "02-26415096",
    "Region": "北部",
    "Lat": 25.06854,
    "Lon": 121.66203,
    "Level": "二等站"
  },
  {
    "Name": "五堵",
    "Address": "新北市汐止區長安里長安路17號",
    "Phone": "02-86476200",
    "Region": "北部",
    "Lat": 25.077887,
    "Lon": 121.66763,
    "Level": "其他"
  },
  {
    "Name": "猴硐",
    "Address": "新北市瑞芳區光復里柴寮路70號",
    "Phone": "02-24977747",
    "Region": "北部",
    "Lat": 25.086835,
    "Lon": 121.827497,
    "Level": "其他"
  },
  {
    "Name": "四腳亭",
    "Address": "新北市瑞芳區吉慶里中央路65號",
    "Phone": "02-24579346",
    "Region": "北部",
    "Lat": 25.102785,
    "Lon": 121.76192,
    "Level": "其他"
  },
  {
    "Name": "瑞芳",
    "Address": "新北市瑞芳區龍潭里明燈路三段82號",
    "Phone": "02-24972033",
    "Region": "北部",
    "Lat": 25.108693,
    "Lon": 121.806092,
    "Level": "一等站"
  },
  {
    "Name": "香山",
    "Address": "新竹市香山區朝山里中華路五段347巷2弄27號",
    "Phone": "03-5237441",
    "Region": "北部",
    "Lat": 24.76312,
    "Lon": 120.913914,
    "Level": "其他"
  },
  {
    "Name": "三姓橋",
    "Address": "新竹市香山區元培街32巷30號",
    "Phone": "03-5237441",
    "Region": "北部",
    "Lat": 24.787283,
    "Lon": 120.92849,
    "Level": "其他"
  },
  {
    "Name": "新莊",
    "Address": "新竹市東區新莊里關東路310號",
    "Phone": "03-5237441",
    "Region": "北部",
    "Lat": 24.788146,
    "Lon": 121.022009,
    "Level": "其他"
  },
  {
    "Name": "新竹",
    "Address": "新竹市東區榮光里中華路二段445號",
    "Phone": "03-5237441",
    "Region": "北部",
    "Lat": 24.801522,
    "Lon": 120.971631,
    "Level": "一等站"
  },
  {
    "Name": "千甲",
    "Address": "新竹市東區水源里千甲路142號",
    "Phone": "03-5237441",
    "Region": "北部",
    "Lat": 24.806657,
    "Lon": 121.003474,
    "Level": "其他"
  },
  {
    "Name": "北新竹",
    "Address": "新竹市東區中華路一段291之2號",
    "Phone": "03-5237441",
    "Region": "北部",
    "Lat": 24.808616,
    "Lon": 120.983808,
    "Level": "其他"
  },
  {
    "Name": "內灣",
    "Address": "新竹縣橫山鄉中正路6號",
    "Phone": "03-5962042",
    "Region": "北部",
    "Lat": 24.70536,
    "Lon": 121.182527,
    "Level": "其他"
  },
  {
    "Name": "富貴",
    "Address": "新竹縣橫山鄉(無站房)",
    "Phone": "03-5962042",
    "Region": "北部",
    "Lat": 24.715508,
    "Lon": 121.167417,
    "Level": "其他"
  },
  {
    "Name": "合興",
    "Address": "新竹縣橫山鄉中山街一段17號",
    "Phone": "03-5962042",
    "Region": "北部",
    "Lat": 24.716647,
    "Lon": 121.154477,
    "Level": "其他"
  },
  {
    "Name": "橫山",
    "Address": "新竹縣橫山鄉橫山村橫山路97號(無站房)",
    "Phone": "03-5962042",
    "Region": "北部",
    "Lat": 24.720412,
    "Lon": 121.117676,
    "Level": "其他"
  },
  {
    "Name": "九讚頭",
    "Address": "新竹縣橫山鄉中豐路二段286巷29號",
    "Phone": "03-5962042",
    "Region": "北部",
    "Lat": 24.720629,
    "Lon": 121.136237,
    "Level": "其他"
  },
  {
    "Name": "竹東",
    "Address": "新竹縣竹東鎮雞林里東林路196號",
    "Phone": "03-5962042",
    "Region": "北部",
    "Lat": 24.738214,
    "Lon": 121.094696,
    "Level": "二等站"
  },
  {
    "Name": "榮華",
    "Address": "新竹縣竹東鎮仁愛里北興路(無站房)",
    "Phone": "03-5962042",
    "Region": "北部",
    "Lat": 24.748348,
    "Lon": 121.083254,
    "Level": "其他"
  },
  {
    "Name": "上員",
    "Address": "新竹縣竹東鎮上員里光明路(無站房)",
    "Phone": "03-5962042",
    "Region": "北部",
    "Lat": 24.777766,
    "Lon": 121.055789,
    "Level": "其他"
  },
  {
    "Name": "竹中",
    "Address": "新竹縣竹東鎮頭重里竹中路145號",
    "Phone": "03-5962042",
    "Region": "北部",
    "Lat": 24.78168,
    "Lon": 121.03138,
    "Level": "其他"
  },
  {
    "Name": "六家",
    "Address": "新竹縣竹北市復興三路二段229號",
    "Phone": "03-5962042",
    "Region": "北部",
    "Lat": 24.807568,
    "Lon": 121.03933,
    "Level": "其他"
  },
  {
    "Name": "竹北",
    "Address": "新竹縣竹北市福德里和平街59號",
    "Phone": "03-5552024",
    "Region": "北部",
    "Lat": 24.839116,
    "Lon": 121.009463,
    "Level": "其他"
  },
  {
    "Name": "新豐",
    "Address": "新竹縣新豐鄉員山村新興路202號",
    "Phone": "03-5596314",
    "Region": "北部",
    "Lat": 24.8698,
    "Lon": 120.996885,
    "Level": "其他"
  },
  {
    "Name": "湖口",
    "Address": "新竹縣湖口鄉仁勢村中山路二段121號",
    "Phone": "03-5992192",
    "Region": "北部",
    "Lat": 24.902896,
    "Lon": 121.044035,
    "Level": "其他"
  },
  {
    "Name": "北湖",
    "Address": "新竹縣湖口鄉東興村北湖路1號",
    "Phone": "03-5993850",
    "Region": "北部",
    "Lat": 24.922144,
    "Lon": 121.055928,
    "Level": "其他"
  },
  {
    "Name": "楊梅",
    "Address": "桃園市楊梅區楊梅里大成路256號",
    "Phone": "03-4782893",
    "Region": "北部",
    "Lat": 24.914018,
    "Lon": 121.146199,
    "Level": "其他"
  },
  {
    "Name": "埔心",
    "Address": "桃園市楊梅區埔心里永美路208號",
    "Phone": "03-4827100",
    "Region": "北部",
    "Lat": 24.919482,
    "Lon": 121.183701,
    "Level": "其他"
  },
  {
    "Name": "新富",
    "Address": "桃園市楊梅區富豐里富全街1號",
    "Phone": "03-4723754",
    "Region": "北部",
    "Lat": 24.931194,
    "Lon": 121.067801,
    "Level": "其他"
  },
  {
    "Name": "富岡",
    "Address": "桃園市楊梅區富岡里成功路37號",
    "Phone": "03-4723754",
    "Region": "北部",
    "Lat": 24.934383,
    "Lon": 121.083087,
    "Level": "其他"
  },
  {
    "Name": "中壢(後站)",
    "Address": "桃園市中壢區東興里新興路99號",
    "Phone": "03-4223235",
    "Region": "北部",
    "Lat": 24.952805,
    "Lon": 121.225168,
    "Level": "一等站"
  },
  {
    "Name": "中壢臨時(前站)",
    "Address": "",
    "Phone": "",
    "Region": "其他",
    "Lat": 24.953345,
    "Lon": 121.224956,
    "Level": "一等站"
  },
  {
    "Name": "中壢(前站)(興建中)",
    "Address": "桃園市中壢區石頭里中和路139號",
    "Phone": "03-4223235",
    "Region": "北部",
    "Lat": 24.953737,
    "Lon": 121.225726,
    "Level": "一等站"
  },
  {
    "Name": "內壢",
    "Address": "桃園市中壢區中原里中華路一段267號",
    "Phone": "03-4559725",
    "Region": "北部",
    "Lat": 24.972774,
    "Lon": 121.258284,
    "Level": "其他"
  },
  {
    "Name": "桃園",
    "Address": "桃園市桃園區武陵里中正路1號",
    "Phone": "03-3767050",
    "Region": "北部",
    "Lat": 24.988791,
    "Lon": 121.314456,
    "Level": "一等站"
  },
  {
    "Name": "萬華",
    "Address": "臺北市萬華區富福里康定路382號",
    "Phone": "02-23020481",
    "Region": "其他",
    "Lat": 25.033336,
    "Lon": 121.500175,
    "Level": "一等站"
  },
  {
    "Name": "臺北",
    "Address": "臺北市中正區黎明里北平西路3號",
    "Phone": "02-23713558",
    "Region": "其他",
    "Lat": 25.047416,
    "Lon": 121.516776,
    "Level": "特等站"
  },
  {
    "Name": "松山",
    "Address": "臺北市信義區永吉里松山路11號B1",
    "Phone": "02-27673819",
    "Region": "其他",
    "Lat": 25.049165,
    "Lon": 121.578369,
    "Level": "一等站"
  },
  {
    "Name": "南港",
    "Address": "臺北市南港區南港里南港路一段313號",
    "Phone": "02-27838645",
    "Region": "其他",
    "Lat": 25.053402,
    "Lon": 121.607072,
    "Level": "一等站"
  },
  {
    "Name": "三義",
    "Address": "苗栗縣三義鄉雙湖村雙湖90號",
    "Phone": "037-874763",
    "Region": "中部",
    "Lat": 24.420631,
    "Lon": 120.773986,
    "Level": "其他"
  },
  {
    "Name": "苑裡",
    "Address": "苗栗縣苑裡鎮苑北里中山路165號",
    "Phone": "037-851013",
    "Region": "中部",
    "Lat": 24.44337,
    "Lon": 120.651415,
    "Level": "其他"
  },
  {
    "Name": "銅鑼",
    "Address": "苗栗縣銅鑼鄉銅鑼村大同路13號",
    "Phone": "037-983838",
    "Region": "中部",
    "Lat": 24.4864,
    "Lon": 120.786184,
    "Level": "其他"
  },
  {
    "Name": "通霄",
    "Address": "苗栗縣通霄鎮通西里中正路109號",
    "Phone": "037-758300",
    "Region": "中部",
    "Lat": 24.491411,
    "Lon": 120.678418,
    "Level": "其他"
  },
  {
    "Name": "南勢",
    "Address": "苗栗縣苗栗市新英里南勢39號",
    "Phone": "037-260031",
    "Region": "中部",
    "Lat": 24.522507,
    "Lon": 120.791512,
    "Level": "其他"
  },
  {
    "Name": "新埔",
    "Address": "苗栗縣通霄鎮新埔里新埔57號",
    "Phone": "037-793066",
    "Region": "中部",
    "Lat": 24.540167,
    "Lon": 120.695208,
    "Level": "其他"
  },
  {
    "Name": "白沙屯",
    "Address": "苗栗縣通霄鎮白西里白西131號",
    "Phone": "037-793066",
    "Region": "中部",
    "Lat": 24.564826,
    "Lon": 120.708191,
    "Level": "其他"
  },
  {
    "Name": "苗栗",
    "Address": "苗栗縣苗栗市上苗里為公路1號",
    "Phone": "037-260031",
    "Region": "中部",
    "Lat": 24.569984,
    "Lon": 120.822425,
    "Level": "一等站"
  },
  {
    "Name": "豐富",
    "Address": "苗栗縣後龍鎮校椅里高鐵一路66號",
    "Phone": "037-726700",
    "Region": "中部",
    "Lat": 24.604268,
    "Lon": 120.826353,
    "Level": "其他"
  },
  {
    "Name": "龍港",
    "Address": "苗栗縣後龍鎮龍京里公司寮85號",
    "Phone": "037-728616",
    "Region": "中部",
    "Lat": 24.611671,
    "Lon": 120.758182,
    "Level": "其他"
  },
  {
    "Name": "後龍",
    "Address": "苗栗縣後龍鎮北龍里車站街127之2號",
    "Phone": "037-728616",
    "Region": "中部",
    "Lat": 24.616042,
    "Lon": 120.787092,
    "Level": "其他"
  },
  {
    "Name": "造橋",
    "Address": "苗栗縣造橋鄉造橋村平仁路54號",
    "Phone": "037-472030",
    "Region": "中部",
    "Lat": 24.641888,
    "Lon": 120.867246,
    "Level": "其他"
  },
  {
    "Name": "大山",
    "Address": "苗栗縣後龍鎮大山里明山路180號",
    "Phone": "037-728616",
    "Region": "中部",
    "Lat": 24.645674,
    "Lon": 120.803778,
    "Level": "其他"
  },
  {
    "Name": "談文",
    "Address": "苗栗縣造橋鄉談文村仁愛路29號",
    "Phone": "037-472030",
    "Region": "中部",
    "Lat": 24.656547,
    "Lon": 120.858497,
    "Level": "其他"
  },
  {
    "Name": "竹南",
    "Address": "苗栗縣竹南鎮竹南里中山路166號",
    "Phone": "037-472030",
    "Region": "中部",
    "Lat": 24.686527,
    "Lon": 120.880419,
    "Level": "一等站"
  },
  {
    "Name": "崎頂",
    "Address": "苗栗縣竹南鎮崎頂里北戶55號",
    "Phone": "037-472030",
    "Region": "中部",
    "Lat": 24.722987,
    "Lon": 120.871763,
    "Level": "其他"
  },
  {
    "Name": "石龜",
    "Address": "雲林縣斗南鎮石溪里",
    "Phone": "05-5972039",
    "Region": "中部",
    "Lat": 23.639525,
    "Lon": 120.471035,
    "Level": "其他"
  },
  {
    "Name": "斗南",
    "Address": "雲林縣斗南鎮南昌里中山路2號",
    "Phone": "05-5972039",
    "Region": "中部",
    "Lat": 23.67261,
    "Lon": 120.480611,
    "Level": "二等站"
  },
  {
    "Name": "斗六",
    "Address": "雲林縣斗六市信義里民生路187號",
    "Phone": "0931 041 917",
    "Region": "中部",
    "Lat": 23.71166,
    "Lon": 120.541223,
    "Level": "一等站"
  },
  {
    "Name": "石榴",
    "Address": "雲林縣斗六市榴北里文明路26號",
    "Phone": "05-5332900",
    "Region": "中部",
    "Lat": 23.731652,
    "Lon": 120.580004,
    "Level": "其他"
  },
  {
    "Name": "林內",
    "Address": "雲林縣林內鄉中山路42號",
    "Phone": "05-5892040",
    "Region": "中部",
    "Lat": 23.759713,
    "Lon": 120.614976,
    "Level": "其他"
  },
  {
    "Name": "泰安",
    "Address": "臺中市后里區安眉路37-12號",
    "Phone": "04-25562038",
    "Region": "其他",
    "Lat": 24.331126,
    "Lon": 120.741777,
    "Level": "其他"
  },
  {
    "Name": "烏日",
    "Address": "臺中市烏日區三民街258號",
    "Phone": "04-23381071",
    "Region": "其他",
    "Lat": 24.108691,
    "Lon": 120.622496,
    "Level": "其他"
  },
  {
    "Name": "新烏日",
    "Address": "臺中市烏日區高鐵東一路26號",
    "Phone": "04-23376883",
    "Region": "其他",
    "Lat": 24.109766,
    "Lon": 120.614291,
    "Level": "二等站"
  },
  {
    "Name": "成功",
    "Address": "臺中市烏日區中山路三段550號",
    "Phone": "04-23371986",
    "Region": "其他",
    "Lat": 24.114287,
    "Lon": 120.590176,
    "Level": "其他"
  },
  {
    "Name": "大慶",
    "Address": "臺中市南區大慶街二段130號",
    "Phone": "04-22637940",
    "Region": "其他",
    "Lat": 24.119347,
    "Lon": 120.648719,
    "Level": "其他"
  },
  {
    "Name": "追分",
    "Address": "臺中市大肚區追分街13號",
    "Phone": "04-26933106",
    "Region": "其他",
    "Lat": 24.120537,
    "Lon": 120.570185,
    "Level": "其他"
  },
  {
    "Name": "五權",
    "Address": "臺中市南區建國南路二段201號",
    "Phone": "04-22601636",
    "Region": "其他",
    "Lat": 24.12875,
    "Lon": 120.666687,
    "Level": "其他"
  },
  {
    "Name": "臺中",
    "Address": "臺中市中區臺灣大道一段1號",
    "Phone": "04-22216492",
    "Region": "其他",
    "Lat": 24.137082,
    "Lon": 120.686906,
    "Level": "特等站"
  },
  {
    "Name": "精武",
    "Address": "臺中市東區東光路161號",
    "Phone": "04-2360650",
    "Region": "其他",
    "Lat": 24.149285,
    "Lon": 120.697853,
    "Level": "其他"
  },
  {
    "Name": "大肚",
    "Address": "臺中市大肚區平和街121號",
    "Phone": "04-26992523",
    "Region": "其他",
    "Lat": 24.154097,
    "Lon": 120.542483,
    "Level": "其他"
  },
  {
    "Name": "太原",
    "Address": "臺中市北屯區東光路665號",
    "Phone": "04-22313926",
    "Region": "其他",
    "Lat": 24.164377,
    "Lon": 120.699949,
    "Level": "其他"
  },
  {
    "Name": "松竹",
    "Address": "臺中市北屯區松竹路一段1473巷100號",
    "Phone": "04-22473033",
    "Region": "其他",
    "Lat": 24.180096,
    "Lon": 120.702048,
    "Level": "其他"
  },
  {
    "Name": "頭家厝",
    "Address": "臺中市潭子區頭張東路43巷8號",
    "Phone": "04-25391426",
    "Region": "其他",
    "Lat": 24.195471,
    "Lon": 120.704038,
    "Level": "其他"
  },
  {
    "Name": "龍井",
    "Address": "臺中市龍井區龍新路1號",
    "Phone": "04-26355578",
    "Region": "其他",
    "Lat": 24.197475,
    "Lon": 120.54335,
    "Level": "其他"
  },
  {
    "Name": "潭子",
    "Address": "臺中市潭子區中山路二段352-1號",
    "Phone": "04-25363852",
    "Region": "其他",
    "Lat": 24.212539,
    "Lon": 120.705842,
    "Level": "其他"
  },
  {
    "Name": "栗林",
    "Address": "臺中市潭子區潭豐路二段747號",
    "Phone": "04-25391401",
    "Region": "其他",
    "Lat": 24.234581,
    "Lon": 120.710656,
    "Level": "其他"
  },
  {
    "Name": "沙鹿",
    "Address": "臺中市沙鹿區中正街94號",
    "Phone": "04-26625057",
    "Region": "其他",
    "Lat": 24.237167,
    "Lon": 120.557585,
    "Level": "二等站"
  },
  {
    "Name": "豐原",
    "Address": "臺中市豐原區中正路1-1號",
    "Phone": "04-25207950",
    "Region": "其他",
    "Lat": 24.254226,
    "Lon": 120.723519,
    "Level": "一等站"
  },
  {
    "Name": "清水",
    "Address": "臺中市清水區中正街115號",
    "Phone": "04-26222021",
    "Region": "其他",
    "Lat": 24.263669,
    "Lon": 120.569146,
    "Level": "其他"
  },
  {
    "Name": "臺中港",
    "Address": "臺中市清水區甲南路2號",
    "Phone": "04-26225374",
    "Region": "其他",
    "Lat": 24.304727,
    "Lon": 120.60241,
    "Level": "二等站"
  },
  {
    "Name": "后里",
    "Address": "臺中市后里區甲后路一段1號",
    "Phone": "04-25562038",
    "Region": "其他",
    "Lat": 24.309284,
    "Lon": 120.733091,
    "Level": "其他"
  },
  {
    "Name": "大甲",
    "Address": "臺中市大甲區中山路一段828號",
    "Phone": "04-26872022",
    "Region": "其他",
    "Lat": 24.344402,
    "Lon": 120.627073,
    "Level": "二等站"
  },
  {
    "Name": "日南",
    "Address": "臺中市大甲區中山路二段140巷8號",
    "Phone": "04-26816113",
    "Region": "其他",
    "Lat": 24.378068,
    "Lon": 120.654149,
    "Level": "其他"
  },
  {
    "Name": "後壁",
    "Address": "臺南市後壁區後壁里後壁77號",
    "Phone": "06-6872055",
    "Region": "其他",
    "Lat": 23.366172,
    "Lon": 120.360525,
    "Level": "其他"
  },
  {
    "Name": "新營",
    "Address": "臺南市新營區中山路1號",
    "Phone": "06-6322104",
    "Region": "其他",
    "Lat": 23.30683,
    "Lon": 120.323179,
    "Level": "一等站"
  },
  {
    "Name": "柳營",
    "Address": "臺南市柳營區建國路1號",
    "Phone": "06-6226450",
    "Region": "其他",
    "Lat": 23.277516,
    "Lon": 120.322568,
    "Level": "其他"
  },
  {
    "Name": "中洲",
    "Address": "臺南市仁德區中洲路298-1號",
    "Phone": "06-2667191",
    "Region": "其他",
    "Lat": 22.904528,
    "Lon": 120.252739,
    "Level": "二等站"
  },
  {
    "Name": "長榮大學",
    "Address": "臺南市歸仁區長榮路一段200巷72弄126號",
    "Phone": "06-2782615",
    "Region": "其他",
    "Lat": 22.907154,
    "Lon": 120.272238,
    "Level": "其他"
  },
  {
    "Name": "仁德",
    "Address": "臺南市仁德區永德路10號",
    "Phone": "06-2669383",
    "Region": "其他",
    "Lat": 22.923568,
    "Lon": 120.240452,
    "Level": "其他"
  },
  {
    "Name": "沙崙",
    "Address": "臺南市歸仁區沙崙里歸仁大道102號",
    "Phone": "06-3032686",
    "Region": "其他",
    "Lat": 22.924002,
    "Lon": 120.286183,
    "Level": "其他"
  },
  {
    "Name": "保安",
    "Address": "臺南市仁德區文賢路一段529巷10號",
    "Phone": "06-2665988",
    "Region": "其他",
    "Lat": 22.932977,
    "Lon": 120.231628,
    "Level": "其他"
  },
  {
    "Name": "臺南(臨時後站)",
    "Address": "",
    "Phone": "",
    "Region": "其他",
    "Lat": 22.996411,
    "Lon": 120.213406,
    "Level": "其他"
  },
  {
    "Name": "臺南",
    "Address": "臺南市東區北門路二段4號",
    "Phone": "06-2261314",
    "Region": "其他",
    "Lat": 22.997185,
    "Lon": 120.212492,
    "Level": "一等站"
  },
  {
    "Name": "大橋",
    "Address": "臺南市永康區中華路835號",
    "Phone": "06-3021755",
    "Region": "其他",
    "Lat": 23.019221,
    "Lon": 120.224306,
    "Level": "其他"
  },
  {
    "Name": "永康",
    "Address": "臺南市永康區中山路459號",
    "Phone": "06-2323305",
    "Region": "其他",
    "Lat": 23.038305,
    "Lon": 120.253474,
    "Level": "二等站"
  },
  {
    "Name": "新市",
    "Address": "臺南市新市區中華路1號",
    "Phone": "06-5996911",
    "Region": "其他",
    "Lat": 23.068154,
    "Lon": 120.289983,
    "Level": "其他"
  },
  {
    "Name": "南科",
    "Address": "臺南市新市區大營里大營287-300號",
    "Phone": "06-5896356",
    "Region": "其他",
    "Lat": 23.10731,
    "Lon": 120.301991,
    "Level": "其他"
  },
  {
    "Name": "善化",
    "Address": "臺南市善化區中山路1號",
    "Phone": "06-5837301",
    "Region": "其他",
    "Lat": 23.13335,
    "Lon": 120.306423,
    "Level": "二等站"
  },
  {
    "Name": "拔林",
    "Address": "臺南市官田區拔林里拔子林83之1號",
    "Phone": "06-5791664",
    "Region": "其他",
    "Lat": 23.172609,
    "Lon": 120.321377,
    "Level": "其他"
  },
  {
    "Name": "隆田",
    "Address": "臺南市官田區中山路一段1號",
    "Phone": "06-5791664",
    "Region": "其他",
    "Lat": 23.192592,
    "Lon": 120.319287,
    "Level": "二等站"
  },
  {
    "Name": "林鳳營",
    "Address": "臺南市六甲區中社里林鳳營16號",
    "Phone": "",
    "Region": "其他",
    "Lat": 23.242593,
    "Lon": 120.321007,
    "Level": "其他"
  },
  {
    "Name": "岡山",
    "Address": "高雄市岡山區岡燕路111號",
    "Phone": "07-6212074",
    "Region": "南部",
    "Lat": 22.792222,
    "Lon": 120.300037,
    "Level": "一等站"
  },
  {
    "Name": "鳳山",
    "Address": "高雄市鳳山區曹公路70號",
    "Phone": "07-7460423",
    "Region": "南部",
    "Lat": 22.631474,
    "Lon": 120.357104,
    "Level": "二等站"
  },
  {
    "Name": "正義",
    "Address": "高雄市苓雅區正義路308號B1",
    "Phone": "07-7460423",
    "Region": "南部",
    "Lat": 22.63429,
    "Lon": 120.342187,
    "Level": "其他"
  },
  {
    "Name": "科工館",
    "Address": "高雄市三民區大順三路307號",
    "Phone": "07-2371507",
    "Region": "南部",
    "Lat": 22.637112,
    "Lon": 120.326044,
    "Level": "其他"
  },
  {
    "Name": "民族",
    "Address": "高雄市三民區凱旋一路260號",
    "Phone": "07-2371507",
    "Region": "南部",
    "Lat": 22.638789,
    "Lon": 120.314832,
    "Level": "其他"
  },
  {
    "Name": "三塊厝",
    "Address": "高雄市三民區康平街1號",
    "Phone": "07-2371507",
    "Region": "南部",
    "Lat": 22.639325,
    "Lon": 120.294158,
    "Level": "其他"
  },
  {
    "Name": "高雄",
    "Address": "高雄市三民區建國二路320號",
    "Phone": "07-2352376",
    "Region": "南部",
    "Lat": 22.639615,
    "Lon": 120.301979,
    "Level": "特等站"
  },
  {
    "Name": "後庄",
    "Address": "高雄市大寮區民慶街9號",
    "Phone": "07-7020149",
    "Region": "南部",
    "Lat": 22.640188,
    "Lon": 120.391291,
    "Level": "其他"
  },
  {
    "Name": "鼓山",
    "Address": "高雄市鼓山區鐵路街20巷6號B1",
    "Phone": "07-2371507",
    "Region": "南部",
    "Lat": 22.641807,
    "Lon": 120.280674,
    "Level": "其他"
  },
  {
    "Name": "美術館",
    "Address": "高雄市鼓山區翠華路246號B1",
    "Phone": "07-2371507",
    "Region": "南部",
    "Lat": 22.652182,
    "Lon": 120.281482,
    "Level": "其他"
  },
  {
    "Name": "內惟",
    "Address": "高雄市鼓山區翠華路500號B1",
    "Phone": "07-5887825",
    "Region": "南部",
    "Lat": 22.66587,
    "Lon": 120.287002,
    "Level": "其他"
  },
  {
    "Name": "左營(舊城)",
    "Address": "高雄市鼓山區翠華路1050號B1",
    "Phone": "07-5887825",
    "Region": "南部",
    "Lat": 22.674487,
    "Lon": 120.294059,
    "Level": "其他"
  },
  {
    "Name": "新左營站",
    "Address": "高雄市左營區站前北路1號",
    "Phone": "07-5887825",
    "Region": "南部",
    "Lat": 22.687539,
    "Lon": 120.306785,
    "Level": "一等站"
  },
  {
    "Name": "楠梓",
    "Address": "高雄市楠梓區建楠路229號",
    "Phone": "07-3510175",
    "Region": "南部",
    "Lat": 22.727048,
    "Lon": 120.3242,
    "Level": "二等站"
  },
  {
    "Name": "橋頭",
    "Address": "高雄市橋頭區站前街14號",
    "Phone": "07-6115424",
    "Region": "南部",
    "Lat": 22.761151,
    "Lon": 120.310098,
    "Level": "其他"
  },
  {
    "Name": "路竹",
    "Address": "高雄市路竹區中正路288號",
    "Phone": "07-6072723",
    "Region": "南部",
    "Lat": 22.853999,
    "Lon": 120.266282,
    "Level": "其他"
  },
  {
    "Name": "大湖",
    "Address": "高雄市路竹區天祐路24號",
    "Phone": "07-6932127",
    "Region": "南部",
    "Lat": 22.878199,
    "Lon": 120.253996,
    "Level": "其他"
  },
  {
    "Name": "九曲堂",
    "Address": "高雄市大樹區久堂路鐵路巷15號",
    "Phone": "07-6512020",
    "Region": "南部",
    "Lat": 22.65641,
    "Lon": 120.420969,
    "Level": "其他"
  },
  {
    "Name": "嘉義",
    "Address": "嘉義市西區中山路528號",
    "Phone": "05-2228904",
    "Region": "南部",
    "Lat": 23.479095,
    "Lon": 120.441182,
    "Level": "一等站"
  },
  {
    "Name": "嘉北",
    "Address": "嘉義市東區保建街110號",
    "Phone": "05-2334584",
    "Region": "南部",
    "Lat": 23.499768,
    "Lon": 120.448329,
    "Level": "其他"
  },
  {
    "Name": "南靖",
    "Address": "嘉義縣水上鄉三鎮路26號",
    "Phone": "05-2601232",
    "Region": "南部",
    "Lat": 23.413401,
    "Lon": 120.386591,
    "Level": "其他"
  },
  {
    "Name": "水上",
    "Address": "嘉義縣水上鄉下寮村鴿溪寮49號",
    "Phone": "05-2228904",
    "Region": "南部",
    "Lat": 23.433988,
    "Lon": 120.399731,
    "Level": "其他"
  },
  {
    "Name": "大林站",
    "Address": "嘉義縣大林鎮中山路2號",
    "Phone": "05-2654804",
    "Region": "南部",
    "Lat": 23.601096,
    "Lon": 120.455844,
    "Level": "其他"
  },
  {
    "Name": "民雄",
    "Address": "嘉義縣民雄鄉和平路2號",
    "Phone": "05-2264272",
    "Region": "南部",
    "Lat": 23.555077,
    "Lon": 120.431396,
    "Level": "其他"
  },
  {
    "Name": "崁頂",
    "Address": "屏東縣崁頂鄉中正路122號",
    "Phone": "08-7882739",
    "Region": "南部",
    "Lat": 22.512981,
    "Lon": 120.51473,
    "Level": "其他"
  },
  {
    "Name": "潮州",
    "Address": "屏東縣潮州鎮信義路111號",
    "Phone": "08-7882739",
    "Region": "南部",
    "Lat": 22.550077,
    "Lon": 120.536319,
    "Level": "一等站"
  },
  {
    "Name": "竹田",
    "Address": "屏東縣竹田鄉豐明路27-1號",
    "Phone": "08-7711002",
    "Region": "南部",
    "Lat": 22.586459,
    "Lon": 120.539931,
    "Level": "其他"
  },
  {
    "Name": "西勢",
    "Address": "屏東縣竹田鄉西豐路2號",
    "Phone": "08-7784521",
    "Region": "南部",
    "Lat": 22.616324,
    "Lon": 120.526416,
    "Level": "其他"
  },
  {
    "Name": "麟洛",
    "Address": "屏東縣麟洛鄉中華路站前巷15號",
    "Phone": "08-7515140",
    "Region": "南部",
    "Lat": 22.635099,
    "Lon": 120.51417,
    "Level": "其他"
  },
  {
    "Name": "東海",
    "Address": "屏東縣枋寮鄉西安路92號",
    "Phone": "08-8782041",
    "Region": "南部",
    "Lat": 22.398944,
    "Lon": 120.572368,
    "Level": "其他"
  },
  {
    "Name": "佳冬",
    "Address": "屏東縣佳冬鄉復興路21號",
    "Phone": "08-8662939",
    "Region": "南部",
    "Lat": 22.414055,
    "Lon": 120.547716,
    "Level": "其他"
  },
  {
    "Name": "林邊",
    "Address": "屏東縣林邊鄉仁愛路33號",
    "Phone": "08-8751475",
    "Region": "南部",
    "Lat": 22.431297,
    "Lon": 120.515205,
    "Level": "其他"
  },
  {
    "Name": "鎮安",
    "Address": "屏東縣林邊鄉永和路4號",
    "Phone": "08-8642942",
    "Region": "南部",
    "Lat": 22.457934,
    "Lon": 120.511224,
    "Level": "其他"
  },
  {
    "Name": "南州",
    "Address": "屏東縣南州鄉仁里路86號",
    "Phone": "08-8642942",
    "Region": "南部",
    "Lat": 22.492027,
    "Lon": 120.511799,
    "Level": "其他"
  },
  {
    "Name": "歸來",
    "Address": "屏東縣屏東市歸仁路1-2號",
    "Phone": "08-7515140",
    "Region": "南部",
    "Lat": 22.652325,
    "Lon": 120.502974,
    "Level": "其他"
  },
  {
    "Name": "屏東",
    "Address": "屏東縣屏東市公勇路62號",
    "Phone": "08-7515140",
    "Region": "南部",
    "Lat": 22.668885,
    "Lon": 120.486218,
    "Level": "一等站"
  },
  {
    "Name": "六塊厝",
    "Address": "屏東縣屏東市光復路392號",
    "Phone": "08-7515140",
    "Region": "南部",
    "Lat": 22.665947,
    "Lon": 120.464975,
    "Level": "其他"
  },
  {
    "Name": "枋寮",
    "Address": "屏東縣枋寮鄉儲運路18號",
    "Phone": "08-8782041",
    "Region": "南部",
    "Lat": 22.368085,
    "Lon": 120.595098,
    "Level": "二等站"
  },
  {
    "Name": "加祿",
    "Address": "屏東縣枋山鄉加祿村會社53號",
    "Phone": "08-8720791",
    "Region": "南部",
    "Lat": 22.330952,
    "Lon": 120.624628,
    "Level": "其他"
  },
  {
    "Name": "內獅",
    "Address": "屏東縣枋山鄉南和路43號",
    "Phone": "08-8720791",
    "Region": "南部",
    "Lat": 22.306153,
    "Lon": 120.64336,
    "Level": "其他"
  },
  {
    "Name": "枋野",
    "Address": "屏東縣獅子鄉內獅巷88號",
    "Phone": "08-8761953",
    "Region": "南部",
    "Lat": 22.280796,
    "Lon": 120.717199,
    "Level": "其他"
  },
  {
    "Name": "枋山",
    "Address": "屏東縣獅子鄉內獅巷88號",
    "Phone": "08-8761953",
    "Region": "南部",
    "Lat": 22.267095,
    "Lon": 120.65962,
    "Level": "其他"
  },
  {
    "Name": "玉里",
    "Address": "花蓮縣玉里鎮康樂街39號",
    "Phone": "03-8882020",
    "Region": "東部",
    "Lat": 23.331581,
    "Lon": 121.31172,
    "Level": "一等站"
  },
  {
    "Name": "東里",
    "Address": "花蓮縣富里鄉大莊路15-6號",
    "Phone": "03-8861005",
    "Region": "東部",
    "Lat": 23.272356,
    "Lon": 121.304219,
    "Level": "其他"
  },
  {
    "Name": "東竹",
    "Address": "花蓮縣富里鄉新興村新興26號",
    "Phone": "03-8821504",
    "Region": "東部",
    "Lat": 23.226019,
    "Lon": 121.27844,
    "Level": "其他"
  },
  {
    "Name": "富里",
    "Address": "花蓮縣富里鄉車站街56號",
    "Phone": "03-8831771",
    "Region": "東部",
    "Lat": 23.179112,
    "Lon": 121.248603,
    "Level": "其他"
  },
  {
    "Name": "三民",
    "Address": "花蓮縣玉里鎮三民里三民10號",
    "Phone": "03-8841847",
    "Region": "東部",
    "Lat": 23.424517,
    "Lon": 121.345378,
    "Level": "其他"
  },
  {
    "Name": "瑞穗",
    "Address": "花蓮縣瑞穗鄉四維街13號",
    "Phone": "03-8875039",
    "Region": "東部",
    "Lat": 23.49737,
    "Lon": 121.376764,
    "Level": "其他"
  },
  {
    "Name": "富源",
    "Address": "花蓮縣瑞穗鄉富源路2號",
    "Phone": "03-8811824",
    "Region": "東部",
    "Lat": 23.580309,
    "Lon": 121.380126,
    "Level": "其他"
  },
  {
    "Name": "大富",
    "Address": "花蓮縣光復鄉明德路1號",
    "Phone": "03-8811824",
    "Region": "東部",
    "Lat": 23.605659,
    "Lon": 121.389598,
    "Level": "其他"
  },
  {
    "Name": "光復",
    "Address": "花蓮縣光復鄉中正路一段2-1號",
    "Phone": "03-8704143",
    "Region": "東部",
    "Lat": 23.666333,
    "Lon": 121.421162,
    "Level": "其他"
  },
  {
    "Name": "萬榮",
    "Address": "花蓮縣鳳林鎮長德街17號",
    "Phone": "03-8752175",
    "Region": "東部",
    "Lat": 23.712061,
    "Lon": 121.419092,
    "Level": "其他"
  },
  {
    "Name": "鳳林",
    "Address": "花蓮縣鳳林鎮中山路43號",
    "Phone": "03-8762004",
    "Region": "東部",
    "Lat": 23.746351,
    "Lon": 121.446968,
    "Level": "其他"
  },
  {
    "Name": "南平",
    "Address": "花蓮縣鳳林鎮自強路233號",
    "Phone": "03-8771597",
    "Region": "東部",
    "Lat": 23.782279,
    "Lon": 121.458219,
    "Level": "其他"
  },
  {
    "Name": "林榮新光",
    "Address": "花蓮縣鳳林鎮兆豐路800號",
    "Phone": "03-8772677",
    "Region": "東部",
    "Lat": 23.802493,
    "Lon": 121.462216,
    "Level": "其他"
  },
  {
    "Name": "豐田",
    "Address": "花蓮縣壽豐鄉站前街36號",
    "Phone": "03-8654251",
    "Region": "東部",
    "Lat": 23.848442,
    "Lon": 121.496194,
    "Level": "其他"
  },
  {
    "Name": "壽豐",
    "Address": "花蓮縣壽豐鄉壽山路1號",
    "Phone": "03-8653706",
    "Region": "東部",
    "Lat": 23.869364,
    "Lon": 121.511005,
    "Level": "其他"
  },
  {
    "Name": "平和",
    "Address": "花蓮縣壽豐鄉平和路1號",
    "Phone": "03-8653706",
    "Region": "東部",
    "Lat": 23.88275,
    "Lon": 121.520452,
    "Level": "其他"
  },
  {
    "Name": "志學",
    "Address": "花蓮縣壽豐鄉中正路1號",
    "Phone": "03-8662966",
    "Region": "東部",
    "Lat": 23.907545,
    "Lon": 121.529426,
    "Level": "其他"
  },
  {
    "Name": "吉安",
    "Address": "花蓮縣吉安鄉南昌街200號",
    "Phone": "03-8539423",
    "Region": "東部",
    "Lat": 23.968154,
    "Lon": 121.582591,
    "Level": "其他"
  },
  {
    "Name": "花蓮",
    "Address": "花蓮縣花蓮市國聯一路100號",
    "Phone": "03-8355941",
    "Region": "東部",
    "Lat": 23.992996,
    "Lon": 121.601825,
    "Level": "特等站"
  },
  {
    "Name": "花蓮港",
    "Address": "花蓮縣花蓮市港口路2號",
    "Phone": "03-8222468",
    "Region": "東部",
    "Lat": 23.994011,
    "Lon": 121.635757,
    "Level": "其他"
  },
  {
    "Name": "北埔",
    "Address": "花蓮縣新城鄉自強街113號",
    "Phone": "03-8263809",
    "Region": "東部",
    "Lat": 24.032482,
    "Lon": 121.601636,
    "Level": "其他"
  },
  {
    "Name": "景美",
    "Address": "花蓮縣秀林鄉加灣178-1號",
    "Phone": "03-8611237",
    "Region": "東部",
    "Lat": 24.090389,
    "Lon": 121.610924,
    "Level": "其他"
  },
  {
    "Name": "新城(太魯閣)",
    "Address": "花蓮縣新城鄉新興一路73號",
    "Phone": "03-8611237",
    "Region": "東部",
    "Lat": 24.127546,
    "Lon": 121.64071,
    "Level": "二等站"
  },
  {
    "Name": "崇德",
    "Address": "花蓮縣秀林鄉海濱路96號",
    "Phone": "03-8621365",
    "Region": "東部",
    "Lat": 24.171965,
    "Lon": 121.6554,
    "Level": "其他"
  },
  {
    "Name": "和仁",
    "Address": "花蓮縣秀林鄉和仁路71號",
    "Phone": "03-8681221",
    "Region": "東部",
    "Lat": 24.242167,
    "Lon": 121.711837,
    "Level": "其他"
  },
  {
    "Name": "和平",
    "Address": "花蓮縣秀林鄉和平村276號",
    "Phone": "03-8681009",
    "Region": "東部",
    "Lat": 24.29828,
    "Lon": 121.753332,
    "Level": "二等站"
  },
  {
    "Name": "瑞和",
    "Address": "臺東縣鹿野鄉瑞景路三段1-1號",
    "Phone": "089-580159",
    "Region": "其他",
    "Lat": 22.980053,
    "Lon": 121.155861,
    "Level": "其他"
  },
  {
    "Name": "瑞源",
    "Address": "臺東縣鹿野鄉瑞景路一段336巷8-1號",
    "Phone": "089-580159",
    "Region": "其他",
    "Lat": 22.956093,
    "Lon": 121.159005,
    "Level": "其他"
  },
  {
    "Name": "鹿野",
    "Address": "臺東縣鹿野鄉中正路38號",
    "Phone": "089-550217",
    "Region": "其他",
    "Lat": 22.912466,
    "Lon": 121.136983,
    "Level": "其他"
  },
  {
    "Name": "山里",
    "Address": "臺東縣卑南鄉山里路108號",
    "Phone": "089-572370",
    "Region": "其他",
    "Lat": 22.86191,
    "Lon": 121.137816,
    "Level": "其他"
  },
  {
    "Name": "臺東",
    "Address": "臺東縣臺東市岩灣路101巷598號",
    "Phone": "089-229687",
    "Region": "其他",
    "Lat": 22.793724,
    "Lon": 121.123148,
    "Level": "一等站"
  },
  {
    "Name": "池上",
    "Address": "臺東縣池上鄉鐵花路30號",
    "Phone": "089-862097",
    "Region": "其他",
    "Lat": 23.126319,
    "Lon": 121.219762,
    "Level": "其他"
  },
  {
    "Name": "海端",
    "Address": "臺東縣關山鎮德高里西莊49號",
    "Phone": "089-811033",
    "Region": "其他",
    "Lat": 23.102925,
    "Lon": 121.176799,
    "Level": "其他"
  },
  {
    "Name": "關山",
    "Address": "臺東縣關山鎮博愛路2號",
    "Phone": "089-811033",
    "Region": "其他",
    "Lat": 23.045663,
    "Lon": 121.164348,
    "Level": "其他"
  },
  {
    "Name": "大武",
    "Address": "臺東縣大武鄉大鳥村和平部落33號",
    "Phone": "089-792056",
    "Region": "其他",
    "Lat": 22.365186,
    "Lon": 120.900827,
    "Level": "其他"
  },
  {
    "Name": "瀧溪",
    "Address": "臺東縣太麻里鄉多良村大溪37號",
    "Phone": "089-761482",
    "Region": "其他",
    "Lat": 22.46096,
    "Lon": 120.941787,
    "Level": "其他"
  },
  {
    "Name": "金崙",
    "Address": "臺東縣太麻里鄉金崙村金崙47-17號",
    "Phone": "089-771068",
    "Region": "其他",
    "Lat": 22.531534,
    "Lon": 120.967262,
    "Level": "其他"
  },
  {
    "Name": "太麻里",
    "Address": "臺東縣太麻里鄉站前路2號",
    "Phone": "089-781544",
    "Region": "其他",
    "Lat": 22.618842,
    "Lon": 121.00497,
    "Level": "其他"
  },
  {
    "Name": "知本",
    "Address": "臺東縣臺東市知本路二段900巷85號",
    "Phone": "089-514482",
    "Region": "其他",
    "Lat": 22.710215,
    "Lon": 121.06071,
    "Level": "其他"
  },
  {
    "Name": "康樂",
    "Address": "臺東縣臺東市博物館路51巷131號",
    "Phone": "089-383107",
    "Region": "其他",
    "Lat": 22.764267,
    "Lon": 121.093513,
    "Level": "其他"
  }
]